,City,Lat,Lng,Max Temp,Humidity,Cloudiness,Wind Speed,Country,Date
0,Dikson,73.51,80.55,2.16,81.0,100.0,5.47,RU,1601446762.0
1,Gandia,38.97,-0.18,16.11,8.0,56.0,0.45,ES,1601446762.0
2,Lautaro,-38.52,-72.45,7.0,93.0,75.0,4.1,CL,1601446763.0
3,Iskateley,67.68,53.15,8.49,82.0,10.0,4.99,RU,1601446763.0
4,Murray Bridge,-35.12,139.27,14.44,93.0,90.0,4.47,AU,1601446764.0
5,Thompson,55.74,-97.86,7.0,100.0,75.0,2.6,CA,1601446764.0
6,Tuktoyaktuk,69.45,-133.04,3.0,93.0,75.0,1.0,CA,1601446765.0
7,Albany,42.6,-73.97,13.89,100.0,90.0,1.5,US,1601446765.0
8,Flin Flon,54.77,-101.86,6.96,82.0,95.0,5.11,CA,1601446766.0
9,Tuatapere,-46.13,167.68,10.0,83.0,99.0,3.13,NZ,1601446767.0
10,Flin Flon,54.77,-101.86,6.96,82.0,95.0,5.11,CA,1601446766.0
11,Hasaki,35.73,140.83,26.11,60.0,40.0,3.1,JP,1601446663.0
12,Qaanaaq,77.48,-69.36,-9.91,78.0,0.0,3.13,GL,1601446768.0
13,Rikitea,-23.12,-134.97,21.18,79.0,55.0,10.13,PF,1601446768.0
14,Albany,42.6,-73.97,13.89,100.0,90.0,1.5,US,1601446765.0
15,Saint-Philippe,-21.36,55.77,26.0,57.0,35.0,3.1,RE,1601446769.0
16,Haines Junction,60.75,-137.51,4.45,81.0,100.0,1.04,CA,1601446769.0
17,Bengkulu,-3.8,102.27,31.35,55.0,48.0,5.39,ID,1601446770.0
18,East London,-33.02,27.91,16.0,59.0,0.0,3.6,ZA,1601446561.0
19,Kandrian,-6.22,149.55,26.84,84.0,70.0,5.41,PG,1601446771.0
20,Cape Town,-33.93,18.42,15.56,87.0,27.0,1.0,ZA,1601446234.0
21,Pisco,-13.7,-76.22,17.0,82.0,90.0,1.5,PE,1601446772.0
22,Ancud,-41.87,-73.82,4.44,86.0,57.0,5.7,CL,1601446772.0
23,Nouadhibou,20.93,-17.03,21.0,77.0,0.0,7.2,MR,1601446773.0
24,Isangel,-19.55,169.27,21.84,78.0,26.0,9.25,VU,1601446773.0
25,Chirongui,-12.93,45.15,29.0,70.0,18.0,4.1,YT,1601446774.0
26,Vaini,-21.2,-175.2,25.0,94.0,75.0,7.2,TO,1601446774.0
27,Atuona,-9.8,-139.03,25.96,75.0,2.0,9.94,PF,1601446775.0
28,Mizdah,31.45,12.98,19.53,75.0,1.0,2.22,LY,1601446775.0
29,Turukhansk,65.82,87.98,1.98,97.0,100.0,3.89,RU,1601446776.0
30,Finschhafen,-6.6,147.87,28.1,72.0,89.0,4.24,PG,1601446776.0
31,Nova Olímpia,-14.8,-57.29,26.29,40.0,98.0,0.78,BR,1601446777.0
32,Meulaboh,4.14,96.13,30.34,65.0,97.0,4.59,ID,1601446777.0
33,Port Lincoln,-34.73,135.87,16.43,74.0,71.0,9.34,AU,1601446778.0
34,Ribeira Grande,38.52,-28.7,16.0,82.0,20.0,2.1,PT,1601446778.0
35,Busselton,-33.65,115.33,17.78,78.0,100.0,4.02,AU,1601446779.0
36,Saint George,37.1,-113.58,20.56,14.0,1.0,2.1,US,1601446729.0
37,Hermanus,-34.42,19.23,11.67,84.0,40.0,0.89,ZA,1601446779.0
38,Busselton,-33.65,115.33,17.78,78.0,100.0,4.02,AU,1601446779.0
39,Athabasca,54.72,-113.29,6.43,64.0,0.0,4.03,CA,1601446780.0
40,Praia da Vitória,38.73,-27.07,18.0,82.0,75.0,4.66,PT,1601446780.0
41,Muhafazat Lahij,13.17,44.58,28.84,57.0,0.0,3.04,YE,1601446780.0
42,Cape Town,-33.93,18.42,15.56,87.0,27.0,1.0,ZA,1601446234.0
43,Mataura,-46.19,168.86,10.0,83.0,100.0,3.13,NZ,1601446781.0
44,San Quintín,30.48,-115.95,24.53,55.0,0.0,2.76,MX,1601446521.0
45,Hermanus,-34.42,19.23,11.67,84.0,40.0,0.89,ZA,1601446779.0
46,Barrow,71.29,-156.79,0.0,98.0,90.0,4.6,US,1601446608.0
47,Lüderitz,-26.65,15.16,13.66,64.0,0.0,8.73,NA,1601446782.0
48,Tezu,27.92,96.17,33.85,44.0,8.0,1.37,IN,1601446782.0
49,Port Hardy,50.7,-127.42,13.0,100.0,20.0,2.6,CA,1601446783.0
50,Vaini,-21.2,-175.2,25.0,94.0,75.0,7.2,TO,1601446774.0
51,Albany,42.6,-73.97,13.89,100.0,90.0,1.5,US,1601446765.0
52,Natal,-5.79,-35.21,24.0,83.0,5.0,3.1,BR,1601446665.0
53,Lata,40.16,-8.33,17.78,93.0,99.0,0.61,PT,1601446784.0
54,West Wendover,40.74,-114.07,12.0,32.0,1.0,1.02,US,1601446784.0
55,Souillac,-20.52,57.52,24.0,78.0,75.0,5.7,MU,1601446784.0
56,Barrow,71.29,-156.79,0.0,98.0,90.0,4.6,US,1601446608.0
57,Geraldton,-28.77,114.6,23.0,49.0,0.0,5.7,AU,1601446785.0
58,Cartagena,10.4,-75.51,26.4,87.0,100.0,3.45,CO,1601446785.0
59,Punta Arenas,-53.15,-70.92,1.0,86.0,90.0,6.2,CL,1601446786.0
60,Chui,-33.7,-53.46,10.58,94.0,0.0,2.09,UY,1601446786.0
61,Rikitea,-23.12,-134.97,21.18,79.0,55.0,10.13,PF,1601446768.0
62,Kultuk,51.72,103.7,4.29,75.0,100.0,3.67,RU,1601446787.0
63,Avarua,-21.21,-159.78,24.0,88.0,32.0,9.3,CK,1601446788.0
64,Punta Arenas,-53.15,-70.92,1.0,86.0,90.0,6.2,CL,1601446786.0
65,Mar del Plata,-38.0,-57.56,12.0,87.0,29.0,4.6,AR,1601446761.0
66,Punta Arenas,-53.15,-70.92,1.0,86.0,90.0,6.2,CL,1601446786.0
67,East London,-33.02,27.91,16.0,59.0,0.0,3.6,ZA,1601446561.0
68,Kapit,2.02,112.93,33.91,45.0,100.0,1.39,MY,1601446789.0
69,Lompoc,34.64,-120.46,15.56,93.0,90.0,3.64,US,1601446492.0
70,Amahai,-3.33,128.92,24.71,90.0,96.0,3.57,ID,1601446789.0
71,Vaini,-21.2,-175.2,25.0,94.0,75.0,7.2,TO,1601446774.0
72,Punta Arenas,-53.15,-70.92,1.0,86.0,90.0,6.2,CL,1601446786.0
73,Vila Velha,-20.33,-40.29,26.11,88.0,40.0,2.6,BR,1601446689.0
74,Zverinogolovskoye,54.46,64.85,11.65,50.0,15.0,1.49,RU,1601446790.0
75,Thompson,55.74,-97.86,7.0,100.0,75.0,2.6,CA,1601446764.0
76,Morant Bay,17.88,-76.41,29.0,74.0,75.0,4.6,JM,1601446791.0
77,Qandala,11.47,49.87,30.82,50.0,34.0,1.85,SO,1601446791.0
78,Nelson,-41.28,173.28,11.67,52.0,69.0,0.45,NZ,1601446791.0
79,Hermanus,-34.42,19.23,11.67,84.0,40.0,0.89,ZA,1601446779.0
80,Chui,-33.7,-53.46,10.58,94.0,0.0,2.09,UY,1601446786.0
81,Longyan,25.11,117.02,25.56,73.0,100.0,1.79,CN,1601446792.0
82,Tual,-5.67,132.75,27.33,81.0,78.0,7.57,ID,1601446793.0
83,Dakar,14.69,-17.44,26.0,94.0,20.0,4.1,SN,1601446389.0
84,Puerto Ayora,-0.74,-90.35,20.0,89.0,96.0,2.68,EC,1601446793.0
85,Yulara,-25.24,130.99,29.0,23.0,0.0,3.1,AU,1601446794.0
86,Butaritari,3.07,172.79,28.08,75.0,45.0,4.93,KI,1601446516.0
87,Namatanai,-3.67,152.43,27.99,77.0,97.0,2.84,PG,1601446794.0
88,Hilo,19.73,-155.09,27.0,74.0,20.0,2.1,US,1601446795.0
89,Giza,30.01,31.21,25.0,94.0,40.0,3.6,EG,1601446795.0
90,Aklavik,68.22,-135.01,3.0,86.0,20.0,2.1,CA,1601446795.0
91,Tuktoyaktuk,69.45,-133.04,3.0,93.0,75.0,1.0,CA,1601446765.0
92,Gigmoto,13.78,124.39,30.01,67.0,100.0,1.17,PH,1601446796.0
93,Kiryat Gat,31.61,34.76,26.67,89.0,0.0,2.29,IL,1601446796.0
94,Raudeberg,61.99,5.14,10.56,96.0,95.0,1.81,NO,1601446797.0
95,Chui,-33.7,-53.46,10.58,94.0,0.0,2.09,UY,1601446786.0
96,Guerrero Negro,27.98,-114.06,26.42,50.0,1.0,2.05,MX,1601446637.0
97,Ushuaia,-54.8,-68.3,-1.0,100.0,75.0,7.7,AR,1601446797.0
98,Vila Franca do Campo,37.72,-25.43,19.0,72.0,75.0,2.6,PT,1601446798.0
99,Robertsport,6.75,-11.37,24.95,85.0,92.0,0.95,LR,1601446798.0
100,Maţāy,28.42,30.78,28.81,46.0,0.0,6.42,EG,1601446799.0
101,Port Hardy,50.7,-127.42,13.0,100.0,20.0,2.6,CA,1601446783.0
102,Saint George,37.1,-113.58,20.56,14.0,1.0,2.1,US,1601446729.0
103,Thompson,55.74,-97.86,7.0,100.0,75.0,2.6,CA,1601446764.0
104,Grand-Santi,4.25,-54.38,22.04,97.0,100.0,0.98,GF,1601446705.0
105,Ushuaia,-54.8,-68.3,-1.0,100.0,75.0,7.7,AR,1601446797.0
106,Castro,-24.79,-50.01,15.99,93.0,25.0,1.5,BR,1601446800.0
107,Bengkulu,-3.8,102.27,31.35,55.0,48.0,5.39,ID,1601446770.0
108,Cape Town,-33.93,18.42,15.56,87.0,27.0,1.0,ZA,1601446234.0
109,Rikitea,-23.12,-134.97,21.18,79.0,55.0,10.13,PF,1601446768.0
110,Dhidhdhoo,6.88,73.1,27.82,75.0,77.0,5.39,MV,1601446801.0
111,Albany,42.6,-73.97,13.89,100.0,90.0,1.5,US,1601446765.0
112,Mataura,-46.19,168.86,10.0,83.0,100.0,3.13,NZ,1601446781.0
113,Sinnamary,5.38,-52.95,25.55,87.0,97.0,2.81,GF,1601446802.0
114,Chui,-33.7,-53.46,10.58,94.0,0.0,2.09,UY,1601446786.0
115,Iqaluit,63.75,-68.51,-2.0,68.0,90.0,5.7,CA,1601446514.0
116,Bluff,-46.6,168.33,10.0,83.0,94.0,3.13,NZ,1601446803.0
117,Rikitea,-23.12,-134.97,21.18,79.0,55.0,10.13,PF,1601446768.0
118,Adrar,20.5,-10.07,29.63,29.0,0.0,4.58,MR,1601446803.0
119,Cidreira,-30.18,-50.21,16.43,91.0,44.0,4.89,BR,1601446804.0
120,Jacksonville Beach,30.29,-81.39,18.0,72.0,40.0,5.7,US,1601446687.0
121,Ushuaia,-54.8,-68.3,-1.0,100.0,75.0,7.7,AR,1601446797.0
122,Barrow,71.29,-156.79,0.0,98.0,90.0,4.6,US,1601446608.0
123,Dingle,11.0,122.67,30.28,73.0,89.0,2.49,PH,1601446805.0
124,Sciacca,37.51,13.09,16.11,96.0,0.0,1.66,IT,1601446805.0
125,Vung Tau,10.35,107.08,30.77,69.0,93.0,5.07,VN,1601446548.0
126,Poopó,-18.37,-66.97,8.11,66.0,45.0,3.2,BO,1601446806.0
127,Souillac,-20.52,57.52,24.0,78.0,75.0,5.7,MU,1601446784.0
128,Fare,-16.7,-151.02,26.3,77.0,1.0,10.37,PF,1601446806.0
129,Castro,-24.79,-50.01,15.99,93.0,25.0,1.5,BR,1601446800.0
130,Alofi,-19.06,-169.92,26.0,83.0,49.0,5.1,NU,1601446807.0
131,Avarua,-21.21,-159.78,24.0,88.0,32.0,9.3,CK,1601446788.0
132,Mumford,5.26,-0.76,24.32,92.0,94.0,4.16,GH,1601446807.0
133,Beaumont,30.09,-94.1,15.0,82.0,1.0,1.06,US,1601446642.0
134,George Town,5.41,100.34,30.0,79.0,40.0,2.6,MY,1601446808.0
135,Vallenar,-28.57,-70.76,11.56,66.0,0.0,0.42,CL,1601446808.0
136,Rikitea,-23.12,-134.97,21.18,79.0,55.0,10.13,PF,1601446768.0
137,Bambanglipuro,-7.95,110.28,31.11,49.0,72.0,6.92,ID,1601446540.0
138,Khatanga,71.97,102.5,-0.8,95.0,99.0,7.3,RU,1601446809.0
139,Rikitea,-23.12,-134.97,21.18,79.0,55.0,10.13,PF,1601446768.0
140,Ushuaia,-54.8,-68.3,-1.0,100.0,75.0,7.7,AR,1601446797.0
141,Yellowknife,62.46,-114.35,3.33,100.0,20.0,3.1,CA,1601446810.0
142,Busselton,-33.65,115.33,17.78,78.0,100.0,4.02,AU,1601446779.0
143,Tiksi,71.69,128.87,0.91,95.0,100.0,5.6,RU,1601446811.0
144,Hermanus,-34.42,19.23,11.67,84.0,40.0,0.89,ZA,1601446779.0
145,Ushuaia,-54.8,-68.3,-1.0,100.0,75.0,7.7,AR,1601446797.0
146,Hobart,-42.88,147.33,17.22,55.0,75.0,7.7,AU,1601446645.0
147,Hobyo,5.35,48.53,27.98,66.0,4.0,6.13,SO,1601446812.0
148,Punta Arenas,-53.15,-70.92,1.0,86.0,90.0,6.2,CL,1601446786.0
149,Longyearbyen,78.22,15.64,4.0,87.0,75.0,9.3,SJ,1601446812.0
150,Mataura,-46.19,168.86,10.0,83.0,100.0,3.13,NZ,1601446781.0
151,Great Bend,38.36,-98.76,13.0,43.0,1.0,4.1,US,1601446813.0
152,Mataura,-46.19,168.86,10.0,83.0,100.0,3.13,NZ,1601446781.0
153,Saint-François,46.42,3.91,8.89,100.0,90.0,1.0,FR,1601446813.0
154,Yatou,37.15,122.38,18.79,52.0,0.0,7.43,CN,1601446814.0
155,Chapleau,47.84,-83.4,5.77,97.0,91.0,1.48,CA,1601446814.0
156,Biharamulo,-2.63,31.31,23.52,61.0,84.0,0.16,TZ,1601446814.0
157,Isangel,-19.55,169.27,21.84,78.0,26.0,9.25,VU,1601446773.0
158,Ipameri,-17.72,-48.16,21.76,23.0,5.0,2.34,BR,1601446815.0
159,Kampene,-3.6,26.67,22.18,89.0,54.0,0.84,CD,1601446815.0
160,Bethel,41.37,-73.41,21.11,94.0,90.0,4.1,US,1601446816.0
161,Kapaa,22.08,-159.32,27.0,69.0,1.0,3.1,US,1601446767.0
162,Neryungri,56.67,124.65,8.93,56.0,100.0,3.59,RU,1601446816.0
163,St. George's,12.06,-61.75,28.0,88.0,20.0,5.1,GD,1601446817.0
164,Ushuaia,-54.8,-68.3,-1.0,100.0,75.0,7.7,AR,1601446797.0
165,Thompson,55.74,-97.86,7.0,100.0,75.0,2.6,CA,1601446764.0
166,Bluff,-46.6,168.33,10.0,83.0,94.0,3.13,NZ,1601446803.0
167,George Town,5.41,100.34,30.0,79.0,40.0,2.6,MY,1601446808.0
168,Khatanga,71.97,102.5,-0.8,95.0,99.0,7.3,RU,1601446809.0
169,Madang,-5.22,145.8,29.0,73.0,78.0,4.0,PG,1601446818.0
170,Yellowknife,62.46,-114.35,3.33,100.0,20.0,3.1,CA,1601446810.0
171,Ende,-8.84,121.66,31.35,45.0,86.0,2.45,ID,1601446819.0
172,Avarua,-21.21,-159.78,24.0,88.0,32.0,9.3,CK,1601446788.0
173,Saint-Philippe,-21.36,55.77,26.0,57.0,35.0,3.1,RE,1601446769.0
174,Airai,-8.93,125.41,24.52,52.0,89.0,2.39,TL,1601446820.0
175,Butaritari,3.07,172.79,28.08,75.0,45.0,4.93,KI,1601446516.0
176,Zaraza,9.35,-65.32,22.41,97.0,45.0,1.5,VE,1601446820.0
177,Kununurra,-15.77,128.73,38.0,31.0,40.0,4.1,AU,1601446821.0
178,Tuktoyaktuk,69.45,-133.04,3.0,93.0,75.0,1.0,CA,1601446765.0
179,Abu Samrah,35.3,37.18,28.5,39.0,0.0,5.77,SY,1601446821.0
180,Vaini,-21.2,-175.2,25.0,94.0,75.0,7.2,TO,1601446774.0
181,Sørland,67.67,12.69,11.0,100.0,90.0,5.7,NO,1601446822.0
182,Punta Arenas,-53.15,-70.92,1.0,86.0,90.0,6.2,CL,1601446786.0
183,Shingū,33.73,135.98,24.0,64.0,75.0,1.5,JP,1601446822.0
184,Tuktoyaktuk,69.45,-133.04,3.0,93.0,75.0,1.0,CA,1601446765.0
185,Vaini,-21.2,-175.2,25.0,94.0,75.0,7.2,TO,1601446774.0
186,Tiksi,71.69,128.87,0.91,95.0,100.0,5.6,RU,1601446811.0
187,Nikolskoye,59.7,30.79,12.0,87.0,90.0,2.0,RU,1601446823.0
188,Rāmshīr,30.89,49.41,34.0,52.0,0.0,8.7,IR,1601446823.0
189,Mataura,-46.19,168.86,10.0,83.0,100.0,3.13,NZ,1601446781.0
190,Sal Rei,16.18,-22.92,25.0,78.0,75.0,4.1,CV,1601446824.0
191,Hithadhoo,-0.6,73.08,28.64,68.0,100.0,3.27,MV,1601446624.0
192,Port Elizabeth,-33.92,25.57,14.0,67.0,0.0,3.1,ZA,1601446825.0
193,Salani,29.96,79.71,28.15,37.0,0.0,2.07,IN,1601446825.0
194,Hermanus,-34.42,19.23,11.67,84.0,40.0,0.89,ZA,1601446779.0
195,Hilo,19.73,-155.09,27.0,74.0,20.0,2.1,US,1601446795.0
196,Punta Arenas,-53.15,-70.92,1.0,86.0,90.0,6.2,CL,1601446786.0
197,Khatanga,71.97,102.5,-0.8,95.0,99.0,7.3,RU,1601446809.0
198,Pedro Juan Caballero,-22.55,-55.73,24.35,47.0,12.0,2.3,PY,1601446826.0
199,Fort Nelson,58.81,-122.7,2.0,80.0,5.0,1.0,CA,1601446827.0
200,Vila Franca do Campo,37.72,-25.43,19.0,72.0,75.0,2.6,PT,1601446798.0
201,Urucará,-2.54,-57.76,25.46,60.0,46.0,1.32,BR,1601446827.0
202,Fortuna,40.6,-124.16,15.0,100.0,90.0,2.1,US,1601446827.0
203,Kapaa,22.08,-159.32,27.0,69.0,1.0,3.1,US,1601446767.0
204,Clyde River,70.47,-68.59,-3.0,92.0,90.0,5.7,CA,1601446828.0
205,Dikson,73.51,80.55,2.16,81.0,100.0,5.47,RU,1601446762.0
206,Vaini,-21.2,-175.2,25.0,94.0,75.0,7.2,TO,1601446774.0
207,Hilo,19.73,-155.09,27.0,74.0,20.0,2.1,US,1601446795.0
208,Mount Isa,-20.73,139.5,36.0,14.0,40.0,3.1,AU,1601446829.0
209,Cape Town,-33.93,18.42,15.56,87.0,27.0,1.0,ZA,1601446234.0
210,Rikitea,-23.12,-134.97,21.18,79.0,55.0,10.13,PF,1601446768.0
211,Mt. Pleasant,32.79,-79.86,17.0,93.0,20.0,3.1,US,1601446830.0
212,Hithadhoo,-0.6,73.08,28.64,68.0,100.0,3.27,MV,1601446624.0
213,Albany,42.6,-73.97,13.89,100.0,90.0,1.5,US,1601446765.0
214,Caravelas,-17.71,-39.25,22.29,91.0,10.0,2.31,BR,1601446830.0
215,Ridgecrest,35.62,-117.67,22.22,19.0,0.0,0.79,US,1601446630.0
216,George Town,5.41,100.34,30.0,79.0,40.0,2.6,MY,1601446808.0
217,Cherskiy,68.75,161.3,6.89,62.0,69.0,5.38,RU,1601446831.0
218,Barstow,34.9,-117.02,24.0,12.0,1.0,2.6,US,1601446539.0
219,Codrington,-38.27,141.97,14.37,81.0,100.0,5.76,AU,1601446832.0
220,Chokurdakh,70.63,147.92,6.15,86.0,91.0,3.48,RU,1601446832.0
221,Rio Grande,-32.03,-52.1,10.56,96.0,1.0,3.2,BR,1601446832.0
222,Kapaa,22.08,-159.32,27.0,69.0,1.0,3.1,US,1601446767.0
223,Ola,59.58,151.28,7.99,74.0,100.0,4.24,RU,1601446833.0
224,Vaini,-21.2,-175.2,25.0,94.0,75.0,7.2,TO,1601446774.0
225,North Platte,41.12,-100.77,8.0,70.0,1.0,3.1,US,1601446834.0
226,Longyearbyen,78.22,15.64,4.0,87.0,75.0,9.3,SJ,1601446812.0
227,Haines Junction,60.75,-137.51,4.45,81.0,100.0,1.04,CA,1601446769.0
228,Ushuaia,-54.8,-68.3,-1.0,100.0,75.0,7.7,AR,1601446797.0
229,Bluff,-46.6,168.33,10.0,83.0,94.0,3.13,NZ,1601446803.0
230,Bacolod City,10.67,122.95,29.3,76.0,94.0,3.51,PH,1601446835.0
231,Talnakh,69.49,88.4,-1.0,92.0,40.0,8.0,RU,1601446835.0
232,Mount Isa,-20.73,139.5,36.0,14.0,40.0,3.1,AU,1601446829.0
233,Pisco,-13.7,-76.22,17.0,82.0,90.0,1.5,PE,1601446772.0
234,Jamestown,42.1,-79.24,10.56,93.0,90.0,3.6,US,1601446590.0
235,Mwinilunga,-11.74,24.43,20.26,69.0,90.0,1.05,ZM,1601446836.0
236,Avarua,-21.21,-159.78,24.0,88.0,32.0,9.3,CK,1601446788.0
237,Rikitea,-23.12,-134.97,21.18,79.0,55.0,10.13,PF,1601446768.0
238,Kahului,20.89,-156.47,28.0,65.0,1.0,4.6,US,1601446837.0
239,Tiksi,71.69,128.87,0.91,95.0,100.0,5.6,RU,1601446811.0
240,Mar del Plata,-38.0,-57.56,12.0,87.0,29.0,4.6,AR,1601446761.0
241,Cabo San Lucas,22.89,-109.91,27.78,69.0,0.0,0.67,MX,1601446651.0
242,Mataura,-46.19,168.86,10.0,83.0,100.0,3.13,NZ,1601446781.0
243,Butaritari,3.07,172.79,28.08,75.0,45.0,4.93,KI,1601446516.0
244,Busselton,-33.65,115.33,17.78,78.0,100.0,4.02,AU,1601446779.0
245,Saldanha,-33.01,17.94,8.0,81.0,1.0,1.5,ZA,1601446838.0
246,Ushuaia,-54.8,-68.3,-1.0,100.0,75.0,7.7,AR,1601446797.0
247,Port Blair,11.67,92.75,29.66,72.0,16.0,8.57,IN,1601446589.0
248,Danané,7.26,-8.15,20.84,97.0,98.0,0.26,CI,1601446839.0
249,Rikitea,-23.12,-134.97,21.18,79.0,55.0,10.13,PF,1601446768.0
250,Creston,41.06,-94.36,13.0,58.0,1.0,2.1,US,1601446839.0
251,Saint Paul Harbor,57.79,-152.41,8.0,87.0,90.0,17.0,US,1601446840.0
252,Oberstdorf,47.4,10.28,8.89,89.0,78.0,1.18,DE,1601446840.0
253,Hilo,19.73,-155.09,27.0,74.0,20.0,2.1,US,1601446795.0
254,Ushuaia,-54.8,-68.3,-1.0,100.0,75.0,7.7,AR,1601446797.0
255,Torbay,47.67,-52.73,18.33,100.0,75.0,5.1,CA,1601446841.0
256,Saldanha,-33.01,17.94,8.0,81.0,1.0,1.5,ZA,1601446838.0
257,Rikitea,-23.12,-134.97,21.18,79.0,55.0,10.13,PF,1601446768.0
258,Liyang,29.71,118.29,25.56,88.0,30.0,2.6,CN,1601446842.0
259,Muzhi,65.37,64.67,11.06,75.0,87.0,3.77,RU,1601446842.0
260,Guozhen,34.37,107.36,22.05,57.0,89.0,1.54,CN,1601446843.0
261,Hobart,-42.88,147.33,17.22,55.0,75.0,7.7,AU,1601446645.0
262,Sānchor,24.76,71.77,33.43,42.0,47.0,2.41,IN,1601446843.0
263,Busselton,-33.65,115.33,17.78,78.0,100.0,4.02,AU,1601446779.0
264,Busselton,-33.65,115.33,17.78,78.0,100.0,4.02,AU,1601446779.0
265,Nome,64.5,-165.41,4.0,86.0,90.0,2.21,US,1601446844.0
266,Ushuaia,-54.8,-68.3,-1.0,100.0,75.0,7.7,AR,1601446797.0
267,Longyearbyen,78.22,15.64,4.0,87.0,75.0,9.3,SJ,1601446812.0
268,Tamale,9.4,-0.84,23.05,89.0,99.0,3.46,GH,1601446845.0
269,Yerofey Pavlovich,53.97,121.97,10.91,49.0,100.0,1.69,RU,1601446845.0
270,Punta Arenas,-53.15,-70.92,1.0,86.0,90.0,6.2,CL,1601446786.0
271,Tuktoyaktuk,69.45,-133.04,3.0,93.0,75.0,1.0,CA,1601446765.0
272,Mataura,-46.19,168.86,10.0,83.0,100.0,3.13,NZ,1601446781.0
273,Mataura,-46.19,168.86,10.0,83.0,100.0,3.13,NZ,1601446781.0
274,Zyryanka,65.75,150.85,10.86,54.0,99.0,4.49,RU,1601446846.0
275,Da Lat,11.95,108.44,23.43,78.0,100.0,1.65,VN,1601446578.0
276,Hilo,19.73,-155.09,27.0,74.0,20.0,2.1,US,1601446795.0
277,Punta Arenas,-53.15,-70.92,1.0,86.0,90.0,6.2,CL,1601446786.0
278,Mataura,-46.19,168.86,10.0,83.0,100.0,3.13,NZ,1601446781.0
279,Husavik,66.04,-17.34,2.0,93.0,90.0,3.6,IS,1601446848.0
280,Goderich,43.75,-81.72,14.44,79.0,85.0,5.36,CA,1601446582.0
281,Askiz,53.13,90.53,3.59,76.0,99.0,1.59,RU,1601446848.0
282,Rikitea,-23.12,-134.97,21.18,79.0,55.0,10.13,PF,1601446768.0
283,Airai,-8.93,125.41,24.52,52.0,89.0,2.39,TL,1601446820.0
284,Thompson,55.74,-97.86,7.0,100.0,75.0,2.6,CA,1601446764.0
285,Hermanus,-34.42,19.23,11.67,84.0,40.0,0.89,ZA,1601446779.0
286,Pangnirtung,66.15,-65.71,-3.49,86.0,0.0,2.73,CA,1601446850.0
287,Mar del Plata,-38.0,-57.56,12.0,87.0,29.0,4.6,AR,1601446761.0
288,Quebo,11.33,-14.93,23.7,96.0,100.0,1.07,GW,1601446850.0
289,Manaíra,-7.71,-38.15,14.51,97.0,0.0,1.42,BR,1601446850.0
290,Yarkovo,57.4,67.08,10.86,74.0,38.0,2.83,RU,1601446851.0
291,Castro,-24.79,-50.01,15.99,93.0,25.0,1.5,BR,1601446800.0
292,Qaanaaq,77.48,-69.36,-9.91,78.0,0.0,3.13,GL,1601446768.0
293,Kiama,-34.68,150.87,17.22,81.0,100.0,3.58,AU,1601446852.0
294,Lompoc,34.64,-120.46,15.56,93.0,90.0,3.64,US,1601446492.0
295,Hobart,-42.88,147.33,17.22,55.0,75.0,7.7,AU,1601446645.0
296,Nyborg,55.31,10.79,13.0,93.0,75.0,2.1,DK,1601446852.0
297,Caucaia,-3.74,-38.65,26.11,74.0,40.0,6.2,BR,1601446852.0
298,Port Macquarie,-31.43,152.92,20.56,57.0,100.0,0.89,AU,1601446853.0
299,Saldanha,-33.01,17.94,8.0,81.0,1.0,1.5,ZA,1601446838.0
300,Kavieng,-2.57,150.8,28.91,71.0,92.0,2.08,PG,1601446853.0
301,La Palma,33.85,-118.05,23.0,69.0,1.0,0.81,US,1601446854.0
302,Vaini,-21.2,-175.2,25.0,94.0,75.0,7.2,TO,1601446774.0
303,Saint-Pierre,-21.34,55.48,26.0,57.0,5.0,3.1,RE,1601446854.0
304,Ushuaia,-54.8,-68.3,-1.0,100.0,75.0,7.7,AR,1601446797.0
305,Dikson,73.51,80.55,2.16,81.0,100.0,5.47,RU,1601446762.0
306,Saint-Philippe,-21.36,55.77,26.0,57.0,35.0,3.1,RE,1601446769.0
307,Westport,41.14,-73.36,22.0,94.0,90.0,6.2,US,1601446855.0
308,San Jose,37.34,-121.89,18.33,77.0,20.0,2.6,US,1601446724.0
309,Cidreira,-30.18,-50.21,16.43,91.0,44.0,4.89,BR,1601446804.0
310,Hillsborough,37.57,-122.38,16.67,100.0,75.0,6.7,US,1601446666.0
311,Londoko,49.03,131.98,13.4,43.0,21.0,2.39,RU,1601446856.0
312,Itupiranga,-5.13,-49.33,23.04,91.0,35.0,1.42,BR,1601446857.0
313,Cape Town,-33.93,18.42,15.56,87.0,27.0,1.0,ZA,1601446234.0
314,Lensk,60.73,114.93,3.88,68.0,100.0,1.93,RU,1601446857.0
315,Jamestown,42.1,-79.24,10.56,93.0,90.0,3.6,US,1601446590.0
316,Lebu,-37.62,-73.65,7.44,83.0,96.0,4.82,CL,1601446858.0
317,Khatanga,71.97,102.5,-0.8,95.0,99.0,7.3,RU,1601446809.0
318,Juneau,58.3,-134.42,9.44,93.0,90.0,2.63,US,1601446858.0
319,Mahébourg,-20.41,57.7,24.0,78.0,75.0,5.7,MU,1601446859.0
320,Mar del Plata,-38.0,-57.56,12.0,87.0,29.0,4.6,AR,1601446761.0
321,Lüderitz,-26.65,15.16,13.66,64.0,0.0,8.73,NA,1601446782.0
322,Iqaluit,63.75,-68.51,-2.0,68.0,90.0,5.7,CA,1601446514.0
323,Tasiilaq,65.61,-37.64,-1.0,80.0,98.0,0.5,GL,1601446860.0
324,Kiri Buru,22.08,85.35,23.87,92.0,100.0,0.84,IN,1601446860.0
325,Luang Prabang,19.89,102.13,31.0,66.0,75.0,0.61,LA,1601446861.0
326,New Norfolk,-42.78,147.06,17.22,56.0,97.0,3.13,AU,1601446861.0
327,Gravdal,68.12,13.5,9.0,100.0,75.0,2.1,NO,1601446833.0
328,Cam Ranh,11.92,109.16,33.0,66.0,20.0,4.1,VN,1601446862.0
329,Hobart,-42.88,147.33,17.22,55.0,75.0,7.7,AU,1601446645.0
330,Cape Town,-33.93,18.42,15.56,87.0,27.0,1.0,ZA,1601446234.0
331,Vaini,-21.2,-175.2,25.0,94.0,75.0,7.2,TO,1601446774.0
332,Chauk,20.88,94.82,32.79,56.0,37.0,4.67,MM,1601446863.0
333,Menongue,-14.66,17.69,21.89,43.0,97.0,0.25,AO,1601446863.0
334,Aracati,-4.56,-37.77,22.43,83.0,0.0,3.92,BR,1601446864.0
335,Bredasdorp,-34.53,20.04,11.0,87.0,19.0,1.0,ZA,1601446864.0
336,Saint-Philippe,-21.36,55.77,26.0,57.0,35.0,3.1,RE,1601446769.0
337,Dunedin,-45.87,170.5,11.11,65.0,97.0,4.92,NZ,1601446865.0
338,Chokurdakh,70.63,147.92,6.15,86.0,91.0,3.48,RU,1601446832.0
339,Florø,61.6,5.03,12.0,93.0,75.0,3.6,NO,1601446865.0
340,Mar del Plata,-38.0,-57.56,12.0,87.0,29.0,4.6,AR,1601446761.0
341,Punta Arenas,-53.15,-70.92,1.0,86.0,90.0,6.2,CL,1601446786.0
342,Eureka,40.8,-124.16,15.0,93.0,2.0,0.45,US,1601446866.0
343,Broome,42.25,-75.83,12.22,100.0,90.0,3.6,US,1601446866.0
344,Punta Arenas,-53.15,-70.92,1.0,86.0,90.0,6.2,CL,1601446786.0
345,Skegness,53.14,0.34,11.11,93.0,40.0,2.6,GB,1601446866.0
346,Shambu,9.57,37.1,14.49,98.0,80.0,0.64,ET,1601446867.0
347,Phoenix,33.45,-112.07,31.0,16.0,1.0,1.18,US,1601446701.0
348,Busselton,-33.65,115.33,17.78,78.0,100.0,4.02,AU,1601446779.0
349,East London,-33.02,27.91,16.0,59.0,0.0,3.6,ZA,1601446561.0
350,Punta Arenas,-53.15,-70.92,1.0,86.0,90.0,6.2,CL,1601446786.0
351,Albany,42.6,-73.97,13.89,100.0,90.0,1.5,US,1601446765.0
352,Hithadhoo,-0.6,73.08,28.64,68.0,100.0,3.27,MV,1601446624.0
353,Ribeira Grande,38.52,-28.7,16.0,82.0,20.0,2.1,PT,1601446778.0
354,Río Gallegos,-51.62,-69.22,0.0,88.0,37.0,8.2,AR,1601446782.0
355,Vaini,-21.2,-175.2,25.0,94.0,75.0,7.2,TO,1601446774.0
356,Caravelas,-17.71,-39.25,22.29,91.0,10.0,2.31,BR,1601446830.0
357,Vilhena,-12.74,-60.15,23.29,69.0,53.0,1.16,BR,1601446869.0
358,Rocha,-34.48,-54.33,8.05,92.0,0.0,2.18,UY,1601446587.0
359,Qaanaaq,77.48,-69.36,-9.91,78.0,0.0,3.13,GL,1601446768.0
360,Kapaa,22.08,-159.32,27.0,69.0,1.0,3.1,US,1601446767.0
361,Kieta,-6.22,155.63,28.05,78.0,28.0,2.52,PG,1601446870.0
362,Tuy Hoa,13.08,109.3,32.79,57.0,100.0,4.06,VN,1601446870.0
363,Seoul,37.57,126.98,25.0,53.0,20.0,2.17,KR,1601446857.0
364,Mataura,-46.19,168.86,10.0,83.0,100.0,3.13,NZ,1601446781.0
365,Tasiilaq,65.61,-37.64,-1.0,80.0,98.0,0.5,GL,1601446860.0
366,Kroya,-7.63,109.25,29.21,68.0,51.0,5.66,ID,1601446871.0
367,New Norfolk,-42.78,147.06,17.22,56.0,97.0,3.13,AU,1601446861.0
368,Chui,-33.7,-53.46,10.58,94.0,0.0,2.09,UY,1601446786.0
369,Vaini,-21.2,-175.2,25.0,94.0,75.0,7.2,TO,1601446774.0
370,Nikolskoye,59.7,30.79,12.0,87.0,90.0,2.0,RU,1601446823.0
371,Aswān,24.09,32.91,33.01,17.0,0.0,3.79,EG,1601446872.0
372,Jamestown,42.1,-79.24,10.56,93.0,90.0,3.6,US,1601446590.0
373,Lebu,-37.62,-73.65,7.44,83.0,96.0,4.82,CL,1601446858.0
374,Ostrovnoy,68.05,39.51,8.76,78.0,3.0,6.86,RU,1601446873.0
375,Punta Arenas,-53.15,-70.92,1.0,86.0,90.0,6.2,CL,1601446786.0
376,Faya,18.39,42.45,21.0,37.0,0.0,1.08,SA,1601446874.0
377,Bengkulu,-3.8,102.27,31.35,55.0,48.0,5.39,ID,1601446770.0
378,Cap-aux-Meules,47.38,-61.86,16.39,94.0,14.0,10.2,CA,1601446874.0
379,Ushuaia,-54.8,-68.3,-1.0,100.0,75.0,7.7,AR,1601446797.0
380,Busselton,-33.65,115.33,17.78,78.0,100.0,4.02,AU,1601446779.0
381,Laas,46.62,10.7,6.11,100.0,40.0,1.5,IT,1601446875.0
382,Pau Brasil,-15.46,-39.65,18.76,97.0,19.0,0.16,BR,1601446875.0
383,Saint George,37.1,-113.58,20.56,14.0,1.0,2.1,US,1601446729.0
384,Hilo,19.73,-155.09,27.0,74.0,20.0,2.1,US,1601446795.0
385,Laas,46.62,10.7,6.11,100.0,40.0,1.5,IT,1601446875.0
386,Torbay,47.67,-52.73,18.33,100.0,75.0,5.1,CA,1601446841.0
387,Ushuaia,-54.8,-68.3,-1.0,100.0,75.0,7.7,AR,1601446797.0
388,Kapaa,22.08,-159.32,27.0,69.0,1.0,3.1,US,1601446767.0
389,Mataura,-46.19,168.86,10.0,83.0,100.0,3.13,NZ,1601446781.0
390,Padang,-0.95,100.35,29.68,66.0,23.0,1.98,ID,1601446877.0
391,Katsuura,35.13,140.3,26.11,56.0,20.0,2.6,JP,1601446877.0
392,Port Alfred,-33.59,26.89,15.66,60.0,4.0,5.44,ZA,1601446878.0
393,Mar del Plata,-38.0,-57.56,12.0,87.0,29.0,4.6,AR,1601446761.0
394,Nikolskoye,59.7,30.79,12.0,87.0,90.0,2.0,RU,1601446823.0
395,Grindavik,63.84,-22.43,2.0,93.0,75.0,3.1,IS,1601446878.0
396,Jamestown,42.1,-79.24,10.56,93.0,90.0,3.6,US,1601446590.0
397,Busselton,-33.65,115.33,17.78,78.0,100.0,4.02,AU,1601446779.0
398,Busselton,-33.65,115.33,17.78,78.0,100.0,4.02,AU,1601446779.0
399,Flinders,-34.58,150.86,17.22,81.0,100.0,3.58,AU,1601446880.0
400,Bluff,-46.6,168.33,10.0,83.0,94.0,3.13,NZ,1601446803.0
401,Ushuaia,-54.8,-68.3,-1.0,100.0,75.0,7.7,AR,1601446797.0
402,Rikitea,-23.12,-134.97,21.18,79.0,55.0,10.13,PF,1601446768.0
403,Codrington,-38.27,141.97,14.37,81.0,100.0,5.76,AU,1601446832.0
404,Cidreira,-30.18,-50.21,16.43,91.0,44.0,4.89,BR,1601446804.0
405,Chokwé,-24.53,32.98,20.13,76.0,99.0,5.25,MZ,1601446881.0
406,Kenai,60.55,-151.26,11.0,53.0,90.0,11.3,US,1601446881.0
407,Barrow,71.29,-156.79,0.0,98.0,90.0,4.6,US,1601446608.0
408,Katsuura,35.13,140.3,26.11,56.0,20.0,2.6,JP,1601446877.0
409,Bethel,41.37,-73.41,21.11,94.0,90.0,4.1,US,1601446816.0
410,Hambantota,6.12,81.12,29.0,83.0,40.0,7.2,LK,1601446882.0
411,Arraial do Cabo,-22.97,-42.03,22.84,89.0,95.0,4.35,BR,1601446840.0
412,Port Alfred,-33.59,26.89,15.66,60.0,4.0,5.44,ZA,1601446878.0
413,Albany,42.6,-73.97,13.89,100.0,90.0,1.5,US,1601446765.0
414,San Cristobal,7.77,-72.22,18.45,82.0,98.0,1.4,VE,1601446883.0
415,Bethel,41.37,-73.41,21.11,94.0,90.0,4.1,US,1601446816.0
416,Katsuura,35.13,140.3,26.11,56.0,20.0,2.6,JP,1601446877.0
417,Busselton,-33.65,115.33,17.78,78.0,100.0,4.02,AU,1601446779.0
418,Roald,62.58,6.13,10.0,100.0,20.0,3.6,NO,1601446884.0
419,Rikitea,-23.12,-134.97,21.18,79.0,55.0,10.13,PF,1601446768.0
420,Grindavik,63.84,-22.43,2.0,93.0,75.0,3.1,IS,1601446878.0
421,Āsosa,10.07,34.53,20.99,86.0,79.0,0.23,ET,1601446885.0
422,Dikson,73.51,80.55,2.16,81.0,100.0,5.47,RU,1601446762.0
423,Mitsamiouli,-11.38,43.28,27.0,74.0,20.0,4.1,KM,1601446886.0
424,Esim,4.87,-2.24,24.02,93.0,99.0,3.79,GH,1601446886.0
425,Punta Arenas,-53.15,-70.92,1.0,86.0,90.0,6.2,CL,1601446786.0
426,Avera,33.19,-82.53,14.0,67.0,1.0,3.6,US,1601446887.0
427,Punta Arenas,-53.15,-70.92,1.0,86.0,90.0,6.2,CL,1601446786.0
428,Jamestown,42.1,-79.24,10.56,93.0,90.0,3.6,US,1601446590.0
429,Hermanus,-34.42,19.23,11.67,84.0,40.0,0.89,ZA,1601446779.0
430,Busselton,-33.65,115.33,17.78,78.0,100.0,4.02,AU,1601446779.0
431,Esperance,-33.87,121.9,22.0,56.0,18.0,4.6,AU,1601446888.0
432,Punta Arenas,-53.15,-70.92,1.0,86.0,90.0,6.2,CL,1601446786.0
433,Panguna,-6.32,155.48,23.86,96.0,51.0,0.41,PG,1601446888.0
434,Punta Arenas,-53.15,-70.92,1.0,86.0,90.0,6.2,CL,1601446786.0
435,Lagoa,39.05,-27.98,19.37,75.0,2.0,5.86,PT,1601446889.0
436,Bambous Virieux,-20.34,57.76,24.44,78.0,75.0,5.7,MU,1601446889.0
437,Teya,60.38,92.63,1.96,83.0,99.0,4.22,RU,1601446890.0
438,Bonavista,48.65,-53.11,15.74,93.0,21.0,6.93,CA,1601446869.0
439,Bluff,-46.6,168.33,10.0,83.0,94.0,3.13,NZ,1601446803.0
440,Tortolì,39.93,9.66,17.0,77.0,40.0,5.1,IT,1601446862.0
441,Jamestown,42.1,-79.24,10.56,93.0,90.0,3.6,US,1601446590.0
442,Coquimbo,-29.95,-71.34,10.0,76.0,0.0,2.1,CL,1601446891.0
443,Ponta do Sol,32.67,-17.1,20.0,82.0,75.0,4.1,PT,1601446630.0
444,Souillac,-20.52,57.52,24.0,78.0,75.0,5.7,MU,1601446784.0
445,Mashhad,36.3,59.61,14.0,24.0,0.0,3.1,IR,1601446798.0
446,Kunda,25.72,81.52,31.67,43.0,4.0,2.83,IN,1601446892.0
447,East London,-33.02,27.91,16.0,59.0,0.0,3.6,ZA,1601446561.0
448,Touros,-5.2,-35.46,22.0,94.0,75.0,1.5,BR,1601446892.0
449,Half Moon Bay,37.46,-122.43,16.11,100.0,90.0,2.6,US,1601446892.0
450,Bengkulu,-3.8,102.27,31.35,55.0,48.0,5.39,ID,1601446770.0
451,Kapaa,22.08,-159.32,27.0,69.0,1.0,3.1,US,1601446767.0
452,Rikitea,-23.12,-134.97,21.18,79.0,55.0,10.13,PF,1601446768.0
453,Palana,59.12,159.97,6.15,92.0,100.0,2.65,RU,1601446894.0
454,Usinsk,65.99,57.53,9.3,83.0,81.0,5.11,RU,1601446894.0
455,Tautira,-17.73,-149.15,27.0,69.0,20.0,1.5,PF,1601446895.0
456,Thompson,55.74,-97.86,7.0,100.0,75.0,2.6,CA,1601446764.0
457,Rikitea,-23.12,-134.97,21.18,79.0,55.0,10.13,PF,1601446768.0
458,Chui,-33.7,-53.46,10.58,94.0,0.0,2.09,UY,1601446786.0
459,Ushuaia,-54.8,-68.3,-1.0,100.0,75.0,7.7,AR,1601446797.0
460,Kavieng,-2.57,150.8,28.91,71.0,92.0,2.08,PG,1601446853.0
461,Yinchuan,38.47,106.27,19.47,51.0,76.0,6.75,CN,1601446896.0
462,Baker City,44.77,-117.83,11.0,62.0,1.0,0.99,US,1601446896.0
463,Baringo,0.47,35.97,26.28,44.0,23.0,3.56,KE,1601446897.0
464,Jamestown,42.1,-79.24,10.56,93.0,90.0,3.6,US,1601446590.0
465,Mahébourg,-20.41,57.7,24.0,78.0,75.0,5.7,MU,1601446859.0
466,Banjar,-8.19,114.97,30.0,79.0,20.0,7.7,ID,1601446898.0
467,Rikitea,-23.12,-134.97,21.18,79.0,55.0,10.13,PF,1601446768.0
468,Coquimbo,-29.95,-71.34,10.0,76.0,0.0,2.1,CL,1601446891.0
469,Amudālavalasa,18.42,83.9,25.95,84.0,100.0,3.96,IN,1601446899.0
470,Ushuaia,-54.8,-68.3,-1.0,100.0,75.0,7.7,AR,1601446797.0
471,Port Alfred,-33.59,26.89,15.66,60.0,4.0,5.44,ZA,1601446878.0
472,Hermanus,-34.42,19.23,11.67,84.0,40.0,0.89,ZA,1601446779.0
473,La Crosse,43.8,-91.24,12.0,71.0,1.0,3.1,US,1601446842.0
474,Rikitea,-23.12,-134.97,21.18,79.0,55.0,10.13,PF,1601446768.0
475,Punta Arenas,-53.15,-70.92,1.0,86.0,90.0,6.2,CL,1601446786.0
476,Mataura,-46.19,168.86,10.0,83.0,100.0,3.13,NZ,1601446781.0
477,Alofi,-19.06,-169.92,26.0,83.0,49.0,5.1,NU,1601446807.0
478,Beira,-19.84,34.84,26.0,78.0,75.0,5.1,MZ,1601446901.0
479,Atuona,-9.8,-139.03,25.96,75.0,2.0,9.94,PF,1601446775.0
480,Dikson,73.51,80.55,2.16,81.0,100.0,5.47,RU,1601446762.0
481,Provideniya,64.38,-173.3,6.0,70.0,90.0,3.0,RU,1601446901.0
482,Yanzhou,35.55,116.83,24.72,43.0,1.0,2.05,CN,1601446902.0
483,Kapaa,22.08,-159.32,27.0,69.0,1.0,3.1,US,1601446767.0
484,Brae,60.4,-1.35,11.0,81.0,20.0,9.3,GB,1601446706.0
485,Vaini,-21.2,-175.2,25.0,94.0,75.0,7.2,TO,1601446774.0
486,Avera,33.19,-82.53,14.0,67.0,1.0,3.6,US,1601446887.0
487,Punta Arenas,-53.15,-70.92,1.0,86.0,90.0,6.2,CL,1601446786.0
488,Iqaluit,63.75,-68.51,-2.0,68.0,90.0,5.7,CA,1601446514.0
489,Rikitea,-23.12,-134.97,21.18,79.0,55.0,10.13,PF,1601446768.0
490,Castro,-24.79,-50.01,15.99,93.0,25.0,1.5,BR,1601446800.0
491,Punta Arenas,-53.15,-70.92,1.0,86.0,90.0,6.2,CL,1601446786.0
492,Busselton,-33.65,115.33,17.78,78.0,100.0,4.02,AU,1601446779.0
493,Aklavik,68.22,-135.01,3.0,86.0,20.0,2.1,CA,1601446795.0
494,Hithadhoo,-0.6,73.08,28.64,68.0,100.0,3.27,MV,1601446624.0
495,Kumul,42.8,93.45,15.72,28.0,0.0,2.02,CN,1601446905.0
496,Castro,-24.79,-50.01,15.99,93.0,25.0,1.5,BR,1601446800.0
497,Pangnirtung,66.15,-65.71,-3.49,86.0,0.0,2.73,CA,1601446850.0
498,Vanimo,-2.67,141.3,28.99,72.0,65.0,3.01,PG,1601446875.0
499,Cidreira,-30.18,-50.21,16.43,91.0,44.0,4.89,BR,1601446804.0
500,Kruisfontein,-34.0,24.73,12.78,72.0,0.0,0.89,ZA,1601446906.0
501,Asheboro,35.71,-79.81,14.0,100.0,1.0,1.5,US,1601446907.0
502,Mar del Plata,-38.0,-57.56,12.0,87.0,29.0,4.6,AR,1601446761.0
503,Porto-Novo,6.5,2.6,25.0,94.0,40.0,4.1,BJ,1601446745.0
504,Atuona,-9.8,-139.03,25.96,75.0,2.0,9.94,PF,1601446775.0
505,Half Moon Bay,37.46,-122.43,16.11,100.0,90.0,2.6,US,1601446892.0
506,Hasaki,35.73,140.83,26.11,60.0,40.0,3.1,JP,1601446663.0
507,Bartica,6.4,-58.62,22.74,97.0,59.0,0.41,GY,1601446908.0
508,Port Alfred,-33.59,26.89,15.66,60.0,4.0,5.44,ZA,1601446878.0
509,San Cristobal,7.77,-72.22,18.45,82.0,98.0,1.4,VE,1601446883.0
510,Edson,53.58,-116.44,5.0,75.0,1.0,2.1,CA,1601446909.0
511,Ghorāwal,24.77,82.78,30.61,45.0,57.0,2.66,IN,1601446909.0
512,Cape Town,-33.93,18.42,15.56,87.0,27.0,1.0,ZA,1601446234.0
513,Rikitea,-23.12,-134.97,21.18,79.0,55.0,10.13,PF,1601446768.0
514,Mar del Plata,-38.0,-57.56,12.0,87.0,29.0,4.6,AR,1601446761.0
515,Hilo,19.73,-155.09,27.0,74.0,20.0,2.1,US,1601446795.0
516,Atuona,-9.8,-139.03,25.96,75.0,2.0,9.94,PF,1601446775.0
517,Ozernovskiy,51.5,156.52,10.51,81.0,34.0,1.85,RU,1601446911.0
518,Yellowknife,62.46,-114.35,3.33,100.0,20.0,3.1,CA,1601446810.0
519,Rikitea,-23.12,-134.97,21.18,79.0,55.0,10.13,PF,1601446768.0
